[
  {
    "slug": "alameda-ca",
    "name": "Alameda, CA",
    "bbox": [
      37.7082002,
      -122.3397404,
      37.8000005,
      -122.2239667
    ],
    "center_lon": -122.28185355,
    "center_lat": 37.75410035
  },
  {
    "slug": "albany-ca",
    "name": "Albany, CA",
    "bbox": [
      37.8813867,
      -122.3278274,
      37.8989614,
      -122.2817012
    ],
    "center_lon": -122.3047643,
    "center_lat": 37.89017405
  },
  {
    "slug": "american-canyon-ca",
    "name": "American Canyon, CA",
    "bbox": [
      38.1551766,
      -122.2838465,
      38.226037,
      -122.226348
    ],
    "center_lon": -122.25509725,
    "center_lat": 38.1906068
  },
  {
    "slug": "antioch-ca",
    "name": "Antioch, CA",
    "bbox": [
      37.9208342,
      -121.8605884,
      38.0255794,
      -121.7323883
    ],
    "center_lon": -121.79648835,
    "center_lat": 37.9732068
  },
  {
    "slug": "belmont-ca",
    "name": "Belmont, CA",
    "bbox": [
      37.4971274,
      -122.3288676,
      37.5339581,
      -122.2610669
    ],
    "center_lon": -122.29496725,
    "center_lat": 37.515542749999994
  },
  {
    "slug": "belvedere-ca",
    "name": "Belvedere, CA",
    "bbox": [
      37.8620869,
      -122.4743322,
      37.8840712,
      -122.4525727
    ],
    "center_lon": -122.46345245,
    "center_lat": 37.87307905
  },
  {
    "slug": "benicia-ca",
    "name": "Benicia, CA",
    "bbox": [
      38.0323797,
      -122.2004446,
      38.111115,
      -122.103768
    ],
    "center_lon": -122.1521063,
    "center_lat": 38.071747349999995
  },
  {
    "slug": "berkeley-ca",
    "name": "Berkeley, CA",
    "bbox": [
      37.8356877,
      -122.3558946,
      37.9066896,
      -122.2341962
    ],
    "center_lon": -122.29504539999999,
    "center_lat": 37.87118865
  },
  {
    "slug": "brentwood-ca",
    "name": "Brentwood, CA",
    "bbox": [
      37.8888313,
      -121.7600321,
      37.9712486,
      -121.6778037
    ],
    "center_lon": -121.71891790000001,
    "center_lat": 37.93003995
  },
  {
    "slug": "brisbane-ca",
    "name": "Brisbane, CA",
    "bbox": [
      37.6717022,
      -122.4265591,
      37.7082534,
      -122.3809897
    ],
    "center_lon": -122.4037744,
    "center_lat": 37.689977799999994
  },
  {
    "slug": "burlingame-ca",
    "name": "Burlingame, CA",
    "bbox": [
      37.5682796,
      -122.4037216,
      37.6041305,
      -122.3308389
    ],
    "center_lon": -122.36728025,
    "center_lat": 37.58620505
  },
  {
    "slug": "calistoga-ca",
    "name": "Calistoga, CA",
    "bbox": [
      38.567338,
      -122.604292,
      38.598067,
      -122.554763
    ],
    "center_lon": -122.5795275,
    "center_lat": 38.582702499999996
  },
  {
    "slug": "campbell-ca",
    "name": "Campbell, CA",
    "bbox": [
      37.2543718,
      -121.9920268,
      37.3069915,
      -121.9180402
    ],
    "center_lon": -121.9550335,
    "center_lat": 37.280681650000005
  },
  {
    "slug": "clayton-ca",
    "name": "Clayton, CA",
    "bbox": [
      37.9197664,
      -121.9565761,
      37.9558627,
      -121.9117548
    ],
    "center_lon": -121.93416545,
    "center_lat": 37.93781455
  },
  {
    "slug": "cloverdale-ca",
    "name": "Cloverdale, CA",
    "bbox": [
      38.77149,
      -123.035115,
      38.819531,
      -122.988136
    ],
    "center_lon": -123.01162550000001,
    "center_lat": 38.7955105
  },
  {
    "slug": "colma-ca",
    "name": "Colma, CA",
    "bbox": [
      37.6653487,
      -122.4709562,
      37.6888312,
      -122.4321298
    ],
    "center_lon": -122.451543,
    "center_lat": 37.67708995
  },
  {
    "slug": "concord-ca",
    "name": "Concord, CA",
    "bbox": [
      37.9238607,
      -122.0645819,
      38.022717,
      -121.9328265
    ],
    "center_lon": -121.99870419999999,
    "center_lat": 37.97328885
  },
  {
    "slug": "corte-madera-ca",
    "name": "Corte Madera, CA",
    "bbox": [
      37.9071613,
      -122.5389231,
      37.9421465,
      -122.4780382
    ],
    "center_lon": -122.50848065,
    "center_lat": 37.924653899999996
  },
  {
    "slug": "cotati-ca",
    "name": "Cotati, CA",
    "bbox": [
      38.314945,
      -122.729619,
      38.343098,
      -122.687739
    ],
    "center_lon": -122.70867899999999,
    "center_lat": 38.329021499999996
  },
  {
    "slug": "cupertino-ca",
    "name": "Cupertino, CA",
    "bbox": [
      37.2785379,
      -122.0910851,
      37.3403498,
      -121.9958249
    ],
    "center_lon": -122.043455,
    "center_lat": 37.30944385
  },
  {
    "slug": "daly-city-ca",
    "name": "Daly City, CA",
    "bbox": [
      37.6485198,
      -122.5007732,
      37.7082591,
      -122.4051391
    ],
    "center_lon": -122.45295615,
    "center_lat": 37.67838945
  },
  {
    "slug": "dixon-ca",
    "name": "Dixon, CA",
    "bbox": [
      38.3800631,
      -121.8683517,
      38.4890107,
      -121.7862425
    ],
    "center_lon": -121.82729710000001,
    "center_lat": 38.4345369
  },
  {
    "slug": "dublin-ca",
    "name": "Dublin, CA",
    "bbox": [
      37.6977572,
      -121.9877977,
      37.7450996,
      -121.832439
    ],
    "center_lon": -121.91011835,
    "center_lat": 37.7214284
  },
  {
    "slug": "east-palo-alto-ca",
    "name": "East Palo Alto, CA",
    "bbox": [
      37.4518152,
      -122.1563406,
      37.4838788,
      -122.1148613
    ],
    "center_lon": -122.13560095,
    "center_lat": 37.467847
  },
  {
    "slug": "el-cerrito-ca",
    "name": "El Cerrito, CA",
    "bbox": [
      37.8974916,
      -122.3233212,
      37.9383423,
      -122.2811178
    ],
    "center_lon": -122.3022195,
    "center_lat": 37.917916950000006
  },
  {
    "slug": "emeryville-ca",
    "name": "Emeryville, CA",
    "bbox": [
      37.8270539,
      -122.3301569,
      37.8499778,
      -122.2755524
    ],
    "center_lon": -122.30285465,
    "center_lat": 37.83851585
  },
  {
    "slug": "fairfax-ca",
    "name": "Fairfax, CA",
    "bbox": [
      37.9730798,
      -122.6199359,
      38.0097709,
      -122.5793608
    ],
    "center_lon": -122.59964835,
    "center_lat": 37.99142535
  },
  {
    "slug": "fairfield-ca",
    "name": "Fairfield, CA",
    "bbox": [
      38.158498,
      -122.174914,
      38.3132053,
      -121.8919794
    ],
    "center_lon": -122.0334467,
    "center_lat": 38.23585165
  },
  {
    "slug": "foster-city-ca",
    "name": "Foster City, CA",
    "bbox": [
      37.5335255,
      -122.2881522,
      37.5757537,
      -122.1538117
    ],
    "center_lon": -122.22098195000001,
    "center_lat": 37.5546396
  },
  {
    "slug": "fremont-ca",
    "name": "Fremont, CA",
    "bbox": [
      37.4539161,
      -122.1303462,
      37.6066394,
      -121.8701289
    ],
    "center_lon": -122.00023755000001,
    "center_lat": 37.530277749999996
  },
  {
    "slug": "gilroy-ca",
    "name": "Gilroy, CA",
    "bbox": [
      36.9723472,
      -121.6433617,
      37.0482136,
      -121.5188168
    ],
    "center_lon": -121.58108924999999,
    "center_lat": 37.0102804
  },
  {
    "slug": "half-moon-bay-ca",
    "name": "Half Moon Bay, CA",
    "bbox": [
      37.423903,
      -122.4774867,
      37.522908,
      -122.415842
    ],
    "center_lon": -122.44666434999999,
    "center_lat": 37.4734055
  },
  {
    "slug": "hayward-ca",
    "name": "Hayward, CA",
    "bbox": [
      37.5474556,
      -122.1618164,
      37.6899445,
      -121.9203973
    ],
    "center_lon": -122.04110685,
    "center_lat": 37.61870005
  },
  {
    "slug": "healdsburg-ca",
    "name": "Healdsburg, CA",
    "bbox": [
      38.58139,
      -122.902881,
      38.656928,
      -122.842492
    ],
    "center_lon": -122.87268649999999,
    "center_lat": 38.619158999999996
  },
  {
    "slug": "hercules-ca",
    "name": "Hercules, CA",
    "bbox": [
      37.9834069,
      -122.297673,
      38.0349254,
      -122.2096187
    ],
    "center_lon": -122.25364585,
    "center_lat": 38.00916615
  },
  {
    "slug": "hillsborough-ca",
    "name": "Hillsborough, CA",
    "bbox": [
      37.5300474,
      -122.3934256,
      37.5808536,
      -122.3283836
    ],
    "center_lon": -122.3609046,
    "center_lat": 37.5554505
  },
  {
    "slug": "lafayette-ca",
    "name": "Lafayette, CA",
    "bbox": [
      37.8492664,
      -122.1652163,
      37.9393637,
      -122.0779872
    ],
    "center_lon": -122.12160175,
    "center_lat": 37.89431505
  },
  {
    "slug": "larkspur-ca",
    "name": "Larkspur, CA",
    "bbox": [
      37.921661,
      -122.5532228,
      37.9588037,
      -122.5016948
    ],
    "center_lon": -122.5274588,
    "center_lat": 37.94023235
  },
  {
    "slug": "livermore-ca",
    "name": "Livermore, CA",
    "bbox": [
      37.6285721,
      -121.8481011,
      37.7322274,
      -121.6966433
    ],
    "center_lon": -121.7723722,
    "center_lat": 37.68039975
  },
  {
    "slug": "los-altos-hills-ca",
    "name": "Los Altos Hills, CA",
    "bbox": [
      37.3366133,
      -122.171824,
      37.3992093,
      -122.0946894
    ],
    "center_lon": -122.1332567,
    "center_lat": 37.3679113
  },
  {
    "slug": "los-altos-ca",
    "name": "Los Altos, CA",
    "bbox": [
      37.329705,
      -122.1296558,
      37.4065678,
      -122.0619672
    ],
    "center_lon": -122.0958115,
    "center_lat": 37.3681364
  },
  {
    "slug": "los-gatos-ca",
    "name": "Los Gatos, CA",
    "bbox": [
      37.199193,
      -121.9970858,
      37.2653164,
      -121.9055261
    ],
    "center_lon": -121.95130595,
    "center_lat": 37.2322547
  },
  {
    "slug": "martinez-ca",
    "name": "Martinez, CA",
    "bbox": [
      37.9535573,
      -122.1571681,
      38.0430764,
      -122.0751732
    ],
    "center_lon": -122.11617065,
    "center_lat": 37.998316849999995
  },
  {
    "slug": "menlo-park-ca",
    "name": "Menlo Park, CA",
    "bbox": [
      37.4169279,
      -122.2284392,
      37.5073343,
      -122.1182837
    ],
    "center_lon": -122.17336145,
    "center_lat": 37.46213109999999
  },
  {
    "slug": "mill-valley-ca",
    "name": "Mill Valley, CA",
    "bbox": [
      37.886477,
      -122.5769802,
      37.9296329,
      -122.5143818
    ],
    "center_lon": -122.545681,
    "center_lat": 37.90805495
  },
  {
    "slug": "millbrae-ca",
    "name": "Millbrae, CA",
    "bbox": [
      37.5814456,
      -122.424946,
      37.6150763,
      -122.3724992
    ],
    "center_lon": -122.3987226,
    "center_lat": 37.59826095
  },
  {
    "slug": "milpitas-ca",
    "name": "Milpitas, CA",
    "bbox": [
      37.3963528,
      -121.9314616,
      37.4666737,
      -121.8377079
    ],
    "center_lon": -121.88458475,
    "center_lat": 37.43151325
  },
  {
    "slug": "monte-sereno-ca",
    "name": "Monte Sereno, CA",
    "bbox": [
      37.2265032,
      -122.0051675,
      37.2527447,
      -121.9693548
    ],
    "center_lon": -121.98726115,
    "center_lat": 37.23962395
  },
  {
    "slug": "moraga-ca",
    "name": "Moraga, CA",
    "bbox": [
      37.8083414,
      -122.158533,
      37.8757178,
      -122.0878267
    ],
    "center_lon": -122.12317985,
    "center_lat": 37.842029600000004
  },
  {
    "slug": "morgan-hill-ca",
    "name": "Morgan Hill, CA",
    "bbox": [
      37.0888104,
      -121.6980976,
      37.169726,
      -121.5832821
    ],
    "center_lon": -121.64068985,
    "center_lat": 37.1292682
  },
  {
    "slug": "mountain-view-ca",
    "name": "Mountain View, CA",
    "bbox": [
      37.3542156,
      -122.1175575,
      37.4510307,
      -122.0449574
    ],
    "center_lon": -122.08125745000001,
    "center_lat": 37.40262315
  },
  {
    "slug": "napa-ca",
    "name": "Napa, CA",
    "bbox": [
      38.2276156,
      -122.357721,
      38.350834,
      -122.254922
    ],
    "center_lon": -122.3063215,
    "center_lat": 38.2892248
  },
  {
    "slug": "newark-ca",
    "name": "Newark, CA",
    "bbox": [
      37.4776311,
      -122.070899,
      37.5636823,
      -121.9877906
    ],
    "center_lon": -122.02934479999999,
    "center_lat": 37.5206567
  },
  {
    "slug": "novato-ca",
    "name": "Novato, CA",
    "bbox": [
      38.0394821,
      -122.6237763,
      38.1479824,
      -122.4836734
    ],
    "center_lon": -122.55372485000001,
    "center_lat": 38.09373225
  },
  {
    "slug": "oakland-ca",
    "name": "Oakland, CA",
    "bbox": [
      37.6301063,
      -122.3426359,
      37.8854257,
      -122.1144203
    ],
    "center_lon": -122.2285281,
    "center_lat": 37.757766000000004
  },
  {
    "slug": "oakley-ca",
    "name": "Oakley, CA",
    "bbox": [
      37.968804,
      -121.7563122,
      38.0196232,
      -121.6225868
    ],
    "center_lon": -121.6894495,
    "center_lat": 37.994213599999995
  },
  {
    "slug": "orinda-ca",
    "name": "Orinda, CA",
    "bbox": [
      37.8388674,
      -122.2252551,
      37.9215552,
      -122.1394435
    ],
    "center_lon": -122.1823493,
    "center_lat": 37.8802113
  },
  {
    "slug": "pacifica-ca",
    "name": "Pacifica, CA",
    "bbox": [
      37.5663417,
      -122.515384,
      37.6666377,
      -122.4439341
    ],
    "center_lon": -122.47965905000001,
    "center_lat": 37.6164897
  },
  {
    "slug": "palo-alto-ca",
    "name": "Palo Alto, CA",
    "bbox": [
      37.2876789,
      -122.2026647,
      37.4710658,
      -122.071097
    ],
    "center_lon": -122.13688085,
    "center_lat": 37.37937235
  },
  {
    "slug": "petaluma-ca",
    "name": "Petaluma, CA",
    "bbox": [
      38.205269,
      -122.682404,
      38.299326,
      -122.56767
    ],
    "center_lon": -122.625037,
    "center_lat": 38.2522975
  },
  {
    "slug": "piedmont-ca",
    "name": "Piedmont, CA",
    "bbox": [
      37.812276,
      -122.249374,
      37.833026,
      -122.210148
    ],
    "center_lon": -122.229761,
    "center_lat": 37.82265099999999
  },
  {
    "slug": "pinole-ca",
    "name": "Pinole, CA",
    "bbox": [
      37.972879,
      -122.3186469,
      38.0152311,
      -122.2359999
    ],
    "center_lon": -122.2773234,
    "center_lat": 37.99405505
  },
  {
    "slug": "pittsburg-ca",
    "name": "Pittsburg, CA",
    "bbox": [
      37.9829991,
      -121.9860796,
      38.043605,
      -121.8332126
    ],
    "center_lon": -121.9096461,
    "center_lat": 38.01330205
  },
  {
    "slug": "pleasant-hill-ca",
    "name": "Pleasant Hill, CA",
    "bbox": [
      37.9252848,
      -122.1043709,
      37.9823082,
      -122.049772
    ],
    "center_lon": -122.07707145,
    "center_lat": 37.953796499999996
  },
  {
    "slug": "pleasanton-ca",
    "name": "Pleasanton, CA",
    "bbox": [
      37.6200582,
      -121.954974,
      37.7030362,
      -121.7989177
    ],
    "center_lon": -121.87694585,
    "center_lat": 37.6615472
  },
  {
    "slug": "portola-valley-ca",
    "name": "Portola Valley, CA",
    "bbox": [
      37.3383135,
      -122.254062,
      37.4011743,
      -122.1897824
    ],
    "center_lon": -122.2219222,
    "center_lat": 37.3697439
  },
  {
    "slug": "redwood-city-ca",
    "name": "Redwood City, CA",
    "bbox": [
      37.4471717,
      -122.2908234,
      37.5529857,
      -122.1384489
    ],
    "center_lon": -122.21463614999999,
    "center_lat": 37.5000787
  },
  {
    "slug": "richmond-ca",
    "name": "Richmond, CA",
    "bbox": [
      37.8835693,
      -122.4294216,
      38.0126003,
      -122.2434491
    ],
    "center_lon": -122.33643535,
    "center_lat": 37.948084800000004
  },
  {
    "slug": "rio-vista-ca",
    "name": "Rio Vista, CA",
    "bbox": [
      38.147962,
      -121.732074,
      38.204801,
      -121.6712579
    ],
    "center_lon": -121.70166595,
    "center_lat": 38.176381500000005
  },
  {
    "slug": "rohnert-park-ca",
    "name": "Rohnert Park, CA",
    "bbox": [
      38.314309,
      -122.7318552,
      38.372416,
      -122.666675
    ],
    "center_lon": -122.69926509999999,
    "center_lat": 38.3433625
  },
  {
    "slug": "ross-ca",
    "name": "Ross, CA",
    "bbox": [
      37.9552836,
      -122.582637,
      37.9730565,
      -122.5407207
    ],
    "center_lon": -122.56167884999999,
    "center_lat": 37.96417005
  },
  {
    "slug": "san-anselmo-ca",
    "name": "San Anselmo, CA",
    "bbox": [
      37.9674499,
      -122.5869878,
      37.9994072,
      -122.5500389
    ],
    "center_lon": -122.56851335,
    "center_lat": 37.98342855
  },
  {
    "slug": "san-bruno-ca",
    "name": "San Bruno, CA",
    "bbox": [
      37.6039725,
      -122.4729208,
      37.6421974,
      -122.4000975
    ],
    "center_lon": -122.43650915,
    "center_lat": 37.62308495
  },
  {
    "slug": "san-carlos-ca",
    "name": "San Carlos, CA",
    "bbox": [
      37.4747891,
      -122.3026118,
      37.5213064,
      -122.238398
    ],
    "center_lon": -122.27050489999999,
    "center_lat": 37.49804775
  },
  {
    "slug": "san-francisco-ca",
    "name": "San Francisco, CA",
    "bbox": [
      37.7082459,
      -122.5754041,
      37.9296678,
      -122.3201327
    ],
    "center_lon": -122.4477684,
    "center_lat": 37.81895685
  },
  {
    "slug": "san-jose-ca",
    "name": "San Jose, CA",
    "bbox": [
      37.1231596,
      -122.0462228,
      37.4690512,
      -121.5858438
    ],
    "center_lon": -121.8160333,
    "center_lat": 37.2961054
  },
  {
    "slug": "san-leandro-ca",
    "name": "San Leandro, CA",
    "bbox": [
      37.6674075,
      -122.2033611,
      37.7427526,
      -122.1225754
    ],
    "center_lon": -122.16296825,
    "center_lat": 37.70508005000001
  },
  {
    "slug": "san-mateo-ca",
    "name": "San Mateo, CA",
    "bbox": [
      37.5128069,
      -122.3549066,
      37.5992964,
      -122.2745858
    ],
    "center_lon": -122.3147462,
    "center_lat": 37.55605165
  },
  {
    "slug": "san-pablo-ca",
    "name": "San Pablo, CA",
    "bbox": [
      37.9490752,
      -122.3586075,
      37.9815573,
      -122.3184313
    ],
    "center_lon": -122.3385194,
    "center_lat": 37.96531625
  },
  {
    "slug": "san-rafael-ca",
    "name": "San Rafael, CA",
    "bbox": [
      37.9427068,
      -122.589722,
      38.0290987,
      -122.4496016
    ],
    "center_lon": -122.5196618,
    "center_lat": 37.98590275
  },
  {
    "slug": "san-ramon-ca",
    "name": "San Ramon, CA",
    "bbox": [
      37.7212399,
      -122.0044837,
      37.7951234,
      -121.8769321
    ],
    "center_lon": -121.9407079,
    "center_lat": 37.75818165
  },
  {
    "slug": "santa-clara-ca",
    "name": "Santa Clara, CA",
    "bbox": [
      37.3230027,
      -122.0048518,
      37.4185274,
      -121.929697
    ],
    "center_lon": -121.96727440000001,
    "center_lat": 37.37076505
  },
  {
    "slug": "saratoga-ca",
    "name": "Saratoga, CA",
    "bbox": [
      37.2373104,
      -122.068662,
      37.296414,
      -121.9894998
    ],
    "center_lon": -122.0290809,
    "center_lat": 37.2668622
  },
  {
    "slug": "sausalito-ca",
    "name": "Sausalito, CA",
    "bbox": [
      37.8438165,
      -122.5102764,
      37.8727294,
      -122.4743717
    ],
    "center_lon": -122.49232405000001,
    "center_lat": 37.85827295
  },
  {
    "slug": "sebastopol-ca",
    "name": "Sebastopol, CA",
    "bbox": [
      38.383417,
      -122.848161,
      38.412959,
      -122.806272
    ],
    "center_lon": -122.8272165,
    "center_lat": 38.398188000000005
  },
  {
    "slug": "sonoma-ca",
    "name": "Sonoma, CA",
    "bbox": [
      38.274436,
      -122.481887,
      38.307744,
      -122.416085
    ],
    "center_lon": -122.44898599999999,
    "center_lat": 38.29109
  },
  {
    "slug": "south-san-francisco-ca",
    "name": "South San Francisco, CA",
    "bbox": [
      37.6343795,
      -122.471735,
      37.673334,
      -122.3743927
    ],
    "center_lon": -122.42306385,
    "center_lat": 37.65385675
  },
  {
    "slug": "st-helena-ca",
    "name": "St. Helena, CA",
    "bbox": [
      38.486474,
      -122.493027,
      38.559167,
      -122.435935
    ],
    "center_lon": -122.464481,
    "center_lat": 38.5228205
  },
  {
    "slug": "suisun-city-ca",
    "name": "Suisun City, CA",
    "bbox": [
      38.230055,
      -122.054001,
      38.265062,
      -121.9699208
    ],
    "center_lon": -122.01196089999999,
    "center_lat": 38.2475585
  },
  {
    "slug": "sunnyvale-ca",
    "name": "Sunnyvale, CA",
    "bbox": [
      37.3302233,
      -122.0651995,
      37.4490164,
      -121.9824624
    ],
    "center_lon": -122.02383095,
    "center_lat": 37.38961985
  },
  {
    "slug": "tiburon-ca",
    "name": "Tiburon, CA",
    "bbox": [
      37.8416714,
      -122.5076497,
      37.9296678,
      -122.418742
    ],
    "center_lon": -122.46319585,
    "center_lat": 37.8856696
  },
  {
    "slug": "union-city-ca",
    "name": "Union City, CA",
    "bbox": [
      37.561999,
      -122.0967521,
      37.6366008,
      -121.93978
    ],
    "center_lon": -122.01826605,
    "center_lat": 37.5992999
  },
  {
    "slug": "vacaville-ca",
    "name": "Vacaville, CA",
    "bbox": [
      38.3083067,
      -122.032454,
      38.418291,
      -121.8949061
    ],
    "center_lon": -121.96368005,
    "center_lat": 38.36329885000001
  },
  {
    "slug": "vallejo-ca",
    "name": "Vallejo, CA",
    "bbox": [
      38.0593812,
      -122.358973,
      38.173496,
      -122.16615
    ],
    "center_lon": -122.2625615,
    "center_lat": 38.116438599999995
  },
  {
    "slug": "walnut-creek-ca",
    "name": "Walnut Creek, CA",
    "bbox": [
      37.8424681,
      -122.1001494,
      37.9463371,
      -121.9806066
    ],
    "center_lon": -122.040378,
    "center_lat": 37.8944026
  },
  {
    "slug": "windsor-ca",
    "name": "Windsor, CA",
    "bbox": [
      38.492297,
      -122.861145,
      38.570275,
      -122.759679
    ],
    "center_lon": -122.810412,
    "center_lat": 38.531286
  },
  {
    "slug": "woodside-ca",
    "name": "Woodside, CA",
    "bbox": [
      37.3718658,
      -122.3033891,
      37.4609688,
      -122.2232814
    ],
    "center_lon": -122.26333525000001,
    "center_lat": 37.416417300000006
  },
  {
    "slug": "yountville-ca",
    "name": "Yountville, CA",
    "bbox": [
      38.37988,
      -122.386985,
      38.413392,
      -122.350245
    ],
    "center_lon": -122.368615,
    "center_lat": 38.396636
  }
]